[
    {
        "name": "Veracruz, Panama",
        "country": "pa",
        "longitude": -79.62139069572578,
        "latitude": 8.890995793370458
    },
    {
        "name": "Panama City, Panama",
        "country": "pa",
        "longitude": -79.53761627896556,
        "latitude": 8.954147681760357
    },
    {   
        "name": "Valle de Anton, Panama",
        "country": "pa",
        "longitude":  -80.12838584447938,
        "latitude": 8.603993055737451
    },
    {
        "name": "Guanico, Panama",
        "country": "pa",
        "longitude":  -80.43631553805058,
        "latitude": 7.303855491496311
    },
    {
        "name": "Cambutal, Panama",
        "country": "pa",
        "longitude":  -80.50301503617243,
        "latitude": 7.249500073561015
    }
]
